{"site_5094": {"name": "SIDCO Kurichi, Coimbatore - TNPCB", "latitude": 10.942451, "longitude": 76.978996}, "site_5261": {"name": "Muradpur, Patna - BSPCB", "latitude": 25.619651, "longitude": 85.147382}, "site_5044": {"name": "Municipal Corporation Office, Dharuhera -  HSPCB", "latitude": 28.2068, "longitude": 76.7997}, "site_5072": {"name": "Rishi Nagar, Kaithal - HSPCB", "latitude": 29.8006, "longitude": 76.4155}, "site_163": {"name": "Peenya, Bengaluru - CPCB", "latitude": 13.0270199, "longitude": 77.494094}, "site_5613": {"name": "Transport Nagar, Moradabad - UPPCB", "latitude": 28.802625, "longitude": 78.753728}, "site_5123": {"name": "Sector-1, Noida - UPPCB", "latitude": 28.5898, "longitude": 77.3101}, "site_1433": {"name": "Bandhavgar Colony, Satna - Birla Cement", "latitude": 24.58434363, "longitude": 80.8549414}, "site_5413": {"name": "Mulund West, Mumbai - MPCB", "latitude": 19.175, "longitude": 72.9419}, "site_5050": {"name": "Shyam Nagar, Palwal - HSPCB", "latitude": 28.1485564, "longitude": 77.3320667}, "site_5448": {"name": "B.Katihalli, Hassan - KSPCB", "latitude": 13.008556, "longitude": 76.125258}, "site_5590": {"name": "Zero Point GICI, Gangtok - SSPCB", "latitude": 27.33853, "longitude": 88.614099}, "site_5396": {"name": "Deonar, Mumbai - IITM", "latitude": 19.04946, "longitude": 72.923}, "site_1565": {"name": "Lal Bahadur Shastri Nagar, Kalaburagi - KSPCB", "latitude": 17.321993, "longitude": 76.822628}, "site_5056": {"name": "Police Lines, Jind - HSPCB", "latitude": 29.307814, "longitude": 76.337619}, "site_5131": {"name": "Lumpyngngad, Shillong - Meghalaya PCB", "latitude": 25.5586, "longitude": 91.8985}, "site_272": {"name": "Kendriya Vidyalaya, Lucknow - CPCB", "latitude": 26.906111, "longitude": 80.948222}, "site_1555": {"name": "Hombegowda Nagar, Bengaluru - KSPCB", "latitude": 12.938539, "longitude": 77.5901}, "site_5418": {"name": "Naubad, Bidar - KSPCB", "latitude": 17.930306, "longitude": 77.482194}, "site_5345": {"name": "Sector-51, Gurugram - HSPCB", "latitude": 28.4227, "longitude": 77.0667}, "site_5331": {"name": "Kariavattom, Thiruvananthapuram - Kerala PCB", "latitude": 8.5637, "longitude": 76.8865}, "site_5047": {"name": "H.B. Colony, Bhiwani - HSPCB", "latitude": 28.806223, "longitude": 76.141105}, "site_5124": {"name": "Urban, Chamarajanagar - KSPCB", "latitude": 11.55358, "longitude": 76.55521}, "site_147": {"name": "MD University, Rohtak - HSPCB", "latitude": 28.52123, "longitude": 76.37138}, "site_5468": {"name": "IESD Banaras Hindu University, Varanasi - UPPCB", "latitude": 25.262326, "longitude": 82.995408}, "site_119": {"name": "Sirifort, Delhi - CPCB", "latitude": 28.5504249, "longitude": 77.2159377}, "site_5390": {"name": "Corporation Ground, Thrissur - Kerala PCB", "latitude": 10.5324, "longitude": 76.2159}, "site_5503": {"name": "Mangala, Bilaspur - NTPC", "latitude": 22.08815, "longitude": 82.13737}, "site_5628": {"name": "Civil Lines, Bareilly - UPPCB", "latitude": 28.359581, "longitude": 79.414455}, "site_1549": {"name": "Hardev Nagar, Bathinda - PPCB", "latitude": 30.233011, "longitude": 74.907758}, "site_5625": {"name": "Chalai Bazaar, Ramanathapuram - TNPCB", "latitude": 9.36399, "longitude": 78.831977}, "site_5395": {"name": "Lodhi Road, Delhi - IITM", "latitude": 28.588333, "longitude": 77.221667}, "site_5045": {"name": "Arya Nagar, Bahadurgarh - HSPCB", "latitude": 28.6701, "longitude": 76.9254}, "site_5115": {"name": "Worli, Mumbai - MPCB", "latitude": 18.9936162, "longitude": 72.8128113}, "site_288": {"name": "Velachery Res. Area, Chennai - CPCB", "latitude": 13.0052189, "longitude": 80.2398125}, "site_5412": {"name": "Kandivali East, Mumbai - MPCB", "latitude": 19.2058, "longitude": 72.8682}, "site_5269": {"name": "Deen Dayal Nagar, Sagar - MPPCB", "latitude": 23.8640158, "longitude": 78.80289321}, "site_5039": {"name": "Sector-2 IMT, Manesar - HSPCB", "latitude": 28.360699, "longitude": 76.93609}, "site_5092": {"name": "Manali Village, Chennai - TNPCB", "latitude": 13.1662, "longitude": 80.2584}, "site_118": {"name": "DTU, Delhi - CPCB", "latitude": 28.7500499, "longitude": 77.1112615}, "site_106": {"name": "IGI Airport (T3), Delhi - IMD", "latitude": 28.5627763, "longitude": 77.1180053}, "site_107": {"name": "Pusa, Delhi - IMD", "latitude": 28.639645, "longitude": 77.146263}, "site_108": {"name": "Aya Nagar, Delhi - IMD", "latitude": 28.4706914, "longitude": 77.1099364}, "site_109": {"name": "Lodhi Road, Delhi - IMD", "latitude": 28.5918245, "longitude": 77.2273074}, "site_144": {"name": "Vasundhara, Ghaziabad - UPPCB", "latitude": 28.6603346, "longitude": 77.3572563}, "site_153": {"name": "Sector - 125, Noida - UPPCB", "latitude": 28.5447608, "longitude": 77.3231257}, "site_115": {"name": "NSIT Dwarka, Delhi - CPCB", "latitude": 28.60909, "longitude": 77.0325413}, "site_117": {"name": "ITO, Delhi - CPCB", "latitude": 28.628624, "longitude": 77.24106}, "site_103": {"name": "CRRI Mathura Road, Delhi - IMD", "latitude": 28.5512005, "longitude": 77.2735737}, "site_105": {"name": "North Campus, DU, Delhi - IMD", "latitude": 28.6573814, "longitude": 77.1585447}, "site_114": {"name": "IHBAS, Dilshad Garden, Delhi - CPCB", "latitude": 28.6811736, "longitude": 77.3025234}, "site_111": {"name": "Sector - 62, Noida - IMD", "latitude": 28.6245479, "longitude": 77.3577104}, "site_104": {"name": "Burari Crossing, Delhi - IMD", "latitude": 28.7256504, "longitude": 77.2011573}, "site_113": {"name": "Shadipur, Delhi - CPCB", "latitude": 28.6514781, "longitude": 77.1473105}, "site_122": {"name": "Mandir Marg, Delhi - DPCC", "latitude": 28.636429, "longitude": 77.201067}, "site_124": {"name": "R K Puram, Delhi - DPCC", "latitude": 28.563262, "longitude": 77.186937}, "site_125": {"name": "Punjabi Bagh, Delhi - DPCC", "latitude": 28.674045, "longitude": 77.131023}, "site_116": {"name": "East Arjun Nagar, Delhi - CPCB", "latitude": 28.655935, "longitude": 77.294904}, "site_146": {"name": "Vikas Sadan, Gurugram - HSPCB", "latitude": 28.4501238, "longitude": 77.0263051}, "site_168": {"name": "Bandra, Mumbai - MPCB", "latitude": 19.0627, "longitude": 72.84614}, "site_136": {"name": "Collectorate, Jodhpur - RSPCB", "latitude": 26.268249, "longitude": 73.0193853}, "site_164": {"name": "BWSSB Kadabesanahalli, Bengaluru - CPCB", "latitude": 12.9352049, "longitude": 77.6814488}, "site_159": {"name": "Collectorate, Gaya - BSPCB", "latitude": 24.7955, "longitude": 84.9994}, "site_134": {"name": "Police Commissionerate, Jaipur - RSPCB", "latitude": 26.9164092, "longitude": 75.7994901}, "site_198": {"name": "More Chowk Waluj, Aurangabad - MPCB", "latitude": 19.8389439, "longitude": 75.244448}, "site_251": {"name": "ICRISAT Patancheru, Hyderabad - TSPCB", "latitude": 17.5184, "longitude": 78.278777}, "site_252": {"name": "Plammoodu, Thiruvananthapuram - Kerala PCB", "latitude": 8.5149093, "longitude": 76.9435879}, "site_253": {"name": "Punjab Agricultural University, Ludhiana - PPCB", "latitude": 30.9028, "longitude": 75.8086}, "site_254": {"name": "Tata Stadium, Jorapokhar - JSPCB", "latitude": 23.707909, "longitude": 86.41467}, "site_255": {"name": "RIMT University, Mandi Gobindgarh - PPCB", "latitude": 30.649961, "longitude": 76.331442}, "site_256": {"name": "Golden Temple, Amritsar - PPCB", "latitude": 31.62, "longitude": 74.876512}, "site_257": {"name": "PWD Grounds, Vijayawada - APPCB", "latitude": 16.507014, "longitude": 80.627767}, "site_258": {"name": "Tirumala, Tirupati - APPCB", "latitude": 13.67, "longitude": 79.35}, "site_260": {"name": "GVM Corporation, Visakhapatnam - APPCB", "latitude": 17.72, "longitude": 83.3}, "site_261": {"name": "Airoli, Navi Mumbai - MPCB", "latitude": 19.1494, "longitude": 72.9986}, "site_262": {"name": "Central University, Hyderabad - TSPCB", "latitude": 17.460103, "longitude": 78.334361}, "site_165": {"name": "City Railway Station, Bengaluru - KSPCB", "latitude": 12.9756843, "longitude": 77.5660749}, "site_166": {"name": "Sanegurava Halli, Bengaluru - KSPCB", "latitude": 12.990328, "longitude": 77.5431385}, "site_263": {"name": "Sector- 16A, Faridabad - HSPCB", "latitude": 28.4088421, "longitude": 77.3099081}, "site_271": {"name": "Chauhan Colony, Chandrapur - MPCB", "latitude": 19.9629, "longitude": 79.298714}, "site_199": {"name": "Bollaram Industrial Area, Hyderabad - TSPCB", "latitude": 17.540891, "longitude": 78.358528}, "site_162": {"name": "BTM Layout, Bengaluru - CPCB", "latitude": 12.9135218, "longitude": 77.5950804}, "site_158": {"name": "Muzaffarpur Collectorate, Muzaffarpur - BSPCB", "latitude": 26.1209, "longitude": 85.3647}, "site_161": {"name": "Sector-6, Panchkula - HSPCB ", "latitude": 30.7057778, "longitude": 76.8531805555555}, "site_157": {"name": "IGSC Planetarium Complex, Patna - BSPCB", "latitude": 25.5941, "longitude": 85.1376}, "site_273": {"name": "Ardhali Bazar, Varanasi - UPPCB", "latitude": 25.3505986, "longitude": 82.9083074}, "site_274": {"name": "Ghusuri, Howrah - WBPCB", "latitude": 22.611968, "longitude": 88.347422}, "site_275": {"name": "IDA Pashamylaram, Hyderabad - TSPCB", "latitude": 17.5316895, "longitude": 78.218939}, "site_276": {"name": "Nehru Nagar, Kanpur - UPPCB", "latitude": 26.4703136, "longitude": 80.3229863}, "site_277": {"name": "Lalbagh, Lucknow - CPCB", "latitude": 26.8458805, "longitude": 80.9365541}, "site_292": {"name": "Karve Road, Pune - MPCB", "latitude": 18.5011743, "longitude": 73.8165527}, "site_294": {"name": "Sanathnagar, Hyderabad - TSPCB", "latitude": 17.4559458, "longitude": 78.4332152}, "site_295": {"name": "MIDC Khutala, Chandrapur - MPCB", "latitude": 19.9775302, "longitude": 79.2337086}, "site_296": {"name": "Rabindra Bharati University, Kolkata - WBPCB", "latitude": 22.627847, "longitude": 88.380669}, "site_297": {"name": "Talkatora District Industries Center, Lucknow - CPCB", "latitude": 26.83399722, "longitude": 80.8917361}, "site_298": {"name": "Zoo Park, Hyderabad - TSPCB", "latitude": 17.349694, "longitude": 78.451437}, "site_299": {"name": "Sidhu Kanhu Indoor Stadium, Durgapur - WBPCB", "latitude": 23.5404352, "longitude": 87.2892225}, "site_300": {"name": "Priyambada Housing Estate, Haldia - WBPCB", "latitude": 22.06047, "longitude": 88.109737}, "site_301": {"name": "Anand Vihar, Delhi - DPCC", "latitude": 28.647622, "longitude": 77.315809}, "site_302": {"name": "Solapur, Solapur - MPCB", "latitude": 17.6599188, "longitude": 75.9063906}, "site_303": {"name": "Opp GPO Civil Lines, Nagpur - MPCB", "latitude": 21.152875, "longitude": 79.0517531}, "site_304": {"name": "Gangapur Road, Nashik - MPCB", "latitude": 20.0073285, "longitude": 73.7762427}, "site_305": {"name": "Pimpleshwar Mandir, Thane - MPCB", "latitude": 19.192056, "longitude": 72.9585188}, "site_306": {"name": "Manali, Chennai - CPCB", "latitude": 13.164544, "longitude": 80.26285}, "site_307": {"name": "Sanjay Palace, Agra - UPPCB", "latitude": 27.19865833, "longitude": 78.00598056}, "site_308": {"name": "Maninagar, Ahmedabad - GPCB", "latitude": 23.002657, "longitude": 72.591912}, "site_309": {"name": "Victoria, Kolkata - WBPCB", "latitude": 22.5448082, "longitude": 88.3403691}, "site_1390": {"name": "Moti Doongri, Alwar - RSPCB", "latitude": 27.554793, "longitude": 76.611536}, "site_1391": {"name": "RIICO Ind. Area III, Bhiwadi - RSPCB", "latitude": 28.194909, "longitude": 76.862296}, "site_1392": {"name": "Civil Lines,  Ajmer - RSPCB", "latitude": 26.470859, "longitude": 74.646594}, "site_1393": {"name": "Adarsh Nagar, Jaipur - RSPCB", "latitude": 26.902909, "longitude": 75.836858}, "site_1394": {"name": "Shrinath Puram, Kota - RSPCB", "latitude": 25.14389, "longitude": 75.821256}, "site_1395": {"name": "Indira Colony Vistar, Pali - RSPCB", "latitude": 25.771061, "longitude": 73.340227}, "site_1396": {"name": "Shastri Nagar, Jaipur - RSPCB", "latitude": 26.9502929, "longitude": 75.730943}, "site_1397": {"name": "Ashok Nagar, Udaipur - RSPCB", "latitude": 24.5886166, "longitude": 73.6321397}, "site_1398": {"name": "Lajpat Nagar, Moradabad - UPPCB", "latitude": 28.825341, "longitude": 78.7213009}, "site_1399": {"name": "Anand Kala Kshetram, Rajamahendravaram - APPCB", "latitude": 16.9872867, "longitude": 81.7363176}, "site_1400": {"name": "Mahakaleshwar Temple, Ujjain - MPPCB", "latitude": 23.182719, "longitude": 75.768218}, "site_1401": {"name": "Suryakiran Bhawan NCL, Singrauli - MPPCB", "latitude": 24.10897, "longitude": 82.64558}, "site_1402": {"name": "Sector-2 Industrial Area, Pithampur - MPPCB", "latitude": 22.624758, "longitude": 75.675238}, "site_1403": {"name": "Sector-D Industrial Area, Mandideep - MPPCB", "latitude": 23.10844, "longitude": 77.511428}, "site_1404": {"name": "Bhopal Chauraha, Dewas - MPPCB", "latitude": 22.9682591, "longitude": 76.064118}, "site_1405": {"name": "Nishant Ganj, Lucknow - UPPCB", "latitude": 26.871428, "longitude": 80.957145}, "site_1406": {"name": "Secretariat, Amaravati - APPCB", "latitude": 16.5150833, "longitude": 80.5181667}, "site_1408": {"name": "Talcher Coalfields,Talcher - OSPCB", "latitude": 20.9360711, "longitude": 85.1707021}, "site_1410": {"name": "GM Office, Brajrajnagar - OSPCB", "latitude": 21.8004996, "longitude": 83.8396977}, "site_1416": {"name": "Padmapukur, Howrah - WBPCB", "latitude": 22.5687319, "longitude": 88.2797276}, "site_1418": {"name": "Asansol Court Area, Asansol - WBPCB", "latitude": 23.685297, "longitude": 86.945968}, "site_1419": {"name": "Ward-32 Bapupara, Siliguri - WBPCB", "latitude": 26.6883049, "longitude": 88.412668}, "site_1420": {"name": "Ashok Vihar, Delhi - DPCC", "latitude": 28.695381, "longitude": 77.181665}, "site_1421": {"name": "Dr. Karni Singh Shooting Range, Delhi - DPCC", "latitude": 28.498571, "longitude": 77.26484}, "site_1422": {"name": "Dwarka-Sector 8, Delhi - DPCC ", "latitude": 28.5710274, "longitude": 77.0719006}, "site_1423": {"name": "Jahangirpuri, Delhi - DPCC", "latitude": 28.73282, "longitude": 77.170633}, "site_1424": {"name": "Jawaharlal Nehru Stadium, Delhi - DPCC", "latitude": 28.58028, "longitude": 77.233829}, "site_1425": {"name": "Major Dhyan Chand National Stadium, Delhi - DPCC", "latitude": 28.611281, "longitude": 77.237738}, "site_1426": {"name": "Narela, Delhi - DPCC", "latitude": 28.822836, "longitude": 77.101981}, "site_1427": {"name": "Najafgarh, Delhi - DPCC", "latitude": 28.570173, "longitude": 76.933762}, "site_1428": {"name": "Okhla Phase-2, Delhi - DPCC", "latitude": 28.530785, "longitude": 77.271255}, "site_1429": {"name": "Nehru Nagar, Delhi - DPCC", "latitude": 28.56789, "longitude": 77.250515}, "site_1430": {"name": "Rohini, Delhi - DPCC", "latitude": 28.732528, "longitude": 77.11992}, "site_1431": {"name": "Patparganj, Delhi - DPCC", "latitude": 28.623763, "longitude": 77.287209}, "site_1432": {"name": "Sonia Vihar, Delhi - DPCC", "latitude": 28.710508, "longitude": 77.249485}, "site_1434": {"name": "Wazirpur, Delhi - DPCC", "latitude": 28.699793, "longitude": 77.165453}, "site_1435": {"name": "Vivek Vihar, Delhi - DPCC", "latitude": 28.672342, "longitude": 77.31526}, "site_1437": {"name": "Model Town, Patiala - PPCB", "latitude": 30.349388, "longitude": 76.366642}, "site_1438": {"name": "Civil Line, Jalandhar - PPCB", "latitude": 31.321907, "longitude": 75.578914}, "site_1447": {"name": "Deshpande Nagar, Hubballi - KSPCB", "latitude": 15.351773, "longitude": 75.140726}, "site_1450": {"name": "Kalal Majra, Khanna - PPCB", "latitude": 30.736056, "longitude": 76.209694}, "site_1538": {"name": "Ratanpura, Rupnagar - Ambuja Cements", "latitude": 31.0325454, "longitude": 76.5623046}, "site_1541": {"name": "Knowledge Park - III, Greater Noida - UPPCB", "latitude": 28.47272, "longitude": 77.482}, "site_1542": {"name": "Yamunapuram, Bulandshahr - UPPCB", "latitude": 28.406963, "longitude": 77.849831}, "site_1550": {"name": "New Mandi, Muzaffarnagar - UPPCB", "latitude": 29.4723508, "longitude": 77.7194031}, "site_1551": {"name": "Tamaka Ind. Area, Kolar - KSPCB", "latitude": 13.1276288, "longitude": 78.1570122}, "site_1553": {"name": "Bapuji Nagar, Bengaluru - KSPCB", "latitude": 12.951913, "longitude": 77.539784}, "site_1554": {"name": "Hebbal, Bengaluru - KSPCB", "latitude": 13.029152, "longitude": 77.585901}, "site_1556": {"name": "Jayanagar 5th Block, Bengaluru - KSPCB", "latitude": 12.920984, "longitude": 77.584908}, "site_1557": {"name": "Chikkaballapur Rural, Chikkaballapur - KSPCB", "latitude": 13.428828, "longitude": 77.731418}, "site_1558": {"name": "Silk Board, Bengaluru - KSPCB", "latitude": 12.917348, "longitude": 77.622813}, "site_1560": {"name": "Bawana, Delhi - DPCC", "latitude": 28.7762, "longitude": 77.051074}, "site_1561": {"name": "Mundka, Delhi - DPCC", "latitude": 28.684678, "longitude": 77.076574}, "site_1562": {"name": "Sri Aurobindo Marg, Delhi - DPCC", "latitude": 28.531346, "longitude": 77.190156}, "site_1563": {"name": "Pusa, Delhi - DPCC", "latitude": 28.639645, "longitude": 77.146262}, "site_1569": {"name": "New Collectorate, Baghpat - UPPCB", "latitude": 28.974801, "longitude": 77.213357}, "site_5023": {"name": "Anand Vihar, Hapur - UPPCB", "latitude": 28.725645, "longitude": 77.749675}, "site_5024": {"name": "Alipur, Delhi - DPCC", "latitude": 28.815329, "longitude": 77.15301}, "site_5025": {"name": "NISE Gwal Pahari, Gurugram - IMD", "latitude": 28.422681, "longitude": 77.148944}, "site_5040": {"name": "Shrivastav Colony, Damoh - MPPCB", "latitude": 23.81748678, "longitude": 79.446246}, "site_5041": {"name": "Murthal, Sonipat - HSPCB", "latitude": 29.0272, "longitude": 77.0621}, "site_5042": {"name": "Shasthri Nagar, Ratlam - IPCA Lab", "latitude": 23.331731, "longitude": 75.045981}, "site_5043": {"name": "Sector-7, Kurukshetra - HSPCB", "latitude": 29.966942, "longitude": 76.875879}, "site_5046": {"name": "Gobind Pura, Yamuna Nagar - HSPCB", "latitude": 30.1480566, "longitude": 77.2893471}, "site_5048": {"name": "Sector-18, Panipat - HSPCB", "latitude": 29.497973, "longitude": 76.993331}, "site_5051": {"name": "F-Block, Sirsa - HSPCB", "latitude": 29.5364, "longitude": 75.0158}, "site_5052": {"name": "Patti Mehar, Ambala - HSPCB", "latitude": 30.379589, "longitude": 76.778328}, "site_5053": {"name": "Shastri Nagar, Narnaul - HSPCB", "latitude": 28.060249, "longitude": 76.113115}, "site_5054": {"name": "Huda Sector, Fatehabad - HSPCB", "latitude": 29.503664, "longitude": 75.467934}, "site_5055": {"name": "General Hospital, Mandikhera - HSPCB", "latitude": 27.9002, "longitude": 76.9938}, "site_5057": {"name": "Urban Estate-II, Hisar - HSPCB", "latitude": 29.14056, "longitude": 75.744941}, "site_5060": {"name": "Nathu Colony, Ballabgarh - HSPCB", "latitude": 28.3419248, "longitude": 77.319699}, "site_5065": {"name": "GIDC, Ankleshwar - GPCB", "latitude": 21.613267, "longitude": 73.010555}, "site_5066": {"name": "Sector-10, Gandhinagar - GPCB", "latitude": 23.221714, "longitude": 72.654328}, "site_5067": {"name": "Phase-4 GIDC, Vatva - GPCB", "latitude": 22.969611, "longitude": 72.6435}, "site_5068": {"name": "Sahilara, Maihar - KJS Cements", "latitude": 24.2613009, "longitude": 80.7231783}, "site_5071": {"name": "Phase-1 GIDC, Vapi - GPCB", "latitude": 20.362421, "longitude": 72.918013}, "site_5073": {"name": "Railway Colony, Guwahati - PCBA", "latitude": 26.181742, "longitude": 91.78063}, "site_5081": {"name": "Sanjay Nagar, Ghaziabad - UPPCB", "latitude": 28.685382, "longitude": 77.453839}, "site_5082": {"name": "Indirapuram, Ghaziabad - UPPCB", "latitude": 28.646233, "longitude": 77.358075}, "site_5083": {"name": "Loni, Ghaziabad - UPPCB", "latitude": 28.757294, "longitude": 77.278792}, "site_5101": {"name": "Belur Math, Howrah - WBPCB", "latitude": 22.629801, "longitude": 88.352017}, "site_5102": {"name": "Vasai West, Mumbai - MPCB", "latitude": 19.3832, "longitude": 72.8204}, "site_5103": {"name": "Nerul, Navi Mumbai - MPCB", "latitude": 19.008751, "longitude": 73.01662}, "site_5104": {"name": "Kurla, Mumbai - MPCB", "latitude": 19.0863, "longitude": 72.8888}, "site_5105": {"name": "Udyogamandal, Eloor - Kerala PCB", "latitude": 10.073232, "longitude": 76.302765}, "site_5106": {"name": "Vile Parle West, Mumbai - MPCB", "latitude": 19.10861, "longitude": 72.83622}, "site_5107": {"name": "Chhatrapati Shivaji Intl. Airport (T2), Mumbai - MPCB", "latitude": 19.10078, "longitude": 72.87462}, "site_5109": {"name": "Jai Bhim Nagar, Meerut - UPPCB", "latitude": 28.9535882, "longitude": 77.7622941}, "site_5110": {"name": "Fort William, Kolkata - WBPCB", "latitude": 22.55664, "longitude": 88.342674}, "site_5111": {"name": "Jadavpur, Kolkata - WBPCB", "latitude": 22.49929, "longitude": 88.36917}, "site_5112": {"name": "Powai, Mumbai - MPCB", "latitude": 19.1375, "longitude": 72.915056}, "site_5113": {"name": "Borivali East, Mumbai - MPCB", "latitude": 19.2243333, "longitude": 72.8658113}, "site_5114": {"name": "Mahape, Navi Mumbai - MPCB", "latitude": 19.1135051, "longitude": 73.008978}, "site_5118": {"name": "Khadakpada, Kalyan - MPCB", "latitude": 19.25292, "longitude": 73.142019}, "site_5119": {"name": "Sion, Mumbai - MPCB", "latitude": 19.047, "longitude": 72.8746}, "site_5120": {"name": "Colaba, Mumbai - MPCB", "latitude": 18.91, "longitude": 72.82}, "site_5121": {"name": "Knowledge Park - V, Greater Noida - UPPCB", "latitude": 28.557054, "longitude": 77.453663}, "site_5122": {"name": "Sector-116, Noida - UPPCB", "latitude": 28.56923, "longitude": 77.393848}, "site_5125": {"name": "Hebbal 1st Stage, Mysuru - KSPCB", "latitude": 12.21041, "longitude": 76.37376}, "site_5126": {"name": "Rabindra Sarobar, Kolkata - WBPCB", "latitude": 22.51106, "longitude": 88.35142}, "site_5127": {"name": "Sector-25, Chandigarh - CPCC", "latitude": 30.751462, "longitude": 76.762879}, "site_5128": {"name": "Gomti Nagar, Lucknow - UPPCB", "latitude": 26.86812, "longitude": 81.005119}, "site_5129": {"name": "Bidhannagar, Kolkata - WBPCB", "latitude": 22.58157048, "longitude": 88.41002457}, "site_5238": {"name": "Ballygunge, Kolkata - WBPCB", "latitude": 22.5367507, "longitude": 88.3638022}, "site_5247": {"name": "T T Nagar, Bhopal - MPPCB", "latitude": 23.233584, "longitude": 77.400574}, "site_5248": {"name": "Chhoti Gwaltoli, Indore - MPPCB", "latitude": 22.431, "longitude": 75.5213}, "site_5249": {"name": "Marhatal, Jabalpur - MPPCB", "latitude": 23.168606, "longitude": 79.932247}, "site_5250": {"name": "Gole Bazar, Katni - MPPCB", "latitude": 23.50016, "longitude": 80.23284}, "site_5254": {"name": "Collector Office, Yadgir - KSPCB", "latitude": 16.7602, "longitude": 77.1428}, "site_5255": {"name": "Vijay Nagar, Ramanagara - KSPCB", "latitude": 12.733409, "longitude": 77.298051}, "site_5257": {"name": "Pallavpuram Phase 2, Meerut - UPPCB", "latitude": 29.06351, "longitude": 77.709723}, "site_5258": {"name": "Ganga Nagar, Meerut - UPPCB", "latitude": 28.999264, "longitude": 77.7590354}, "site_5262": {"name": "Rajbansi Nagar, Patna - BSPCB", "latitude": 25.599486, "longitude": 85.113666}, "site_5263": {"name": "Samanpura, Patna - BSPCB", "latitude": 25.596727, "longitude": 85.085624}, "site_5264": {"name": "Vidayagiri, Bagalkot - KSPCB", "latitude": 16.172806, "longitude": 75.659694}, "site_5265": {"name": "Kalyana Nagara, Chikkamagaluru - KSPCB", "latitude": 13.328028, "longitude": 75.797056}, "site_5266": {"name": "Vinoba Nagara, Shivamogga - KSPCB", "latitude": 13.94, "longitude": 75.555917}, "site_5267": {"name": "Ibrahimpur, Vijayapura - KSPCB", "latitude": 16.802639, "longitude": 75.722694}, "site_5270": {"name": "Vyttila, Kochi - Kerala PCB", "latitude": 9.969447, "longitude": 76.321186}, "site_5271": {"name": "Palayam, Kozhikode - Kerala PCB", "latitude": 11.249077, "longitude": 75.784371}, "site_5272": {"name": "Kacheripady, Ernakulam - Kerala PCB", "latitude": 9.985653, "longitude": 76.281342}, "site_5273": {"name": "City Center, Gwalior - MPPCB", "latitude": 26.203442, "longitude": 78.193251}, "site_5274": {"name": "GIDC, Nandesari - Nandesari Ind. Association", "latitude": 22.410802, "longitude": 73.097923}, "site_5275": {"name": "Phool Bagh, Gwalior - Mondelez Ind. Food", "latitude": 26.210536, "longitude": 78.171}, "site_5276": {"name": "Thavakkara, Kannur - Kerala PCB", "latitude": 11.875, "longitude": 75.3732}, "site_5334": {"name": "Polayathode, Kollam - Kerala PCB", "latitude": 8.8787, "longitude": 76.6073}, "site_5335": {"name": "Govt. High School Shikarpur, Patna - BSPCB", "latitude": 25.592539, "longitude": 85.227158}, "site_5336": {"name": "DRM Office Danapur, Patna - BSPCB", "latitude": 25.586562, "longitude": 85.043586}, "site_5337": {"name": "Industrial Area, Hajipur - BSPCB", "latitude": 25.697189, "longitude": 85.2459}, "site_5338": {"name": "SFTI Kusdihra, Gaya - BSPCB", "latitude": 24.762518, "longitude": 84.982348}, "site_5339": {"name": "Mini Secretariat, Charkhi Dadri - HSPCB", "latitude": 28.593883, "longitude": 76.270653}, "site_5340": {"name": "New Industrial Town, Faridabad - HSPCB", "latitude": 28.39072, "longitude": 77.30059}, "site_5341": {"name": "Sector 30, Faridabad - HSPCB", "latitude": 28.4417, "longitude": 77.3217}, "site_5342": {"name": "Sector 11, Faridabad - HSPCB", "latitude": 28.376058, "longitude": 77.315741}, "site_5344": {"name": "Teri Gram, Gurugram - HSPCB", "latitude": 28.4275, "longitude": 77.1465}, "site_5346": {"name": "Sikulpuikawn, Aizawl - Mizoram PCB", "latitude": 23.7176342, "longitude": 92.7192841}, "site_5361": {"name": "Arumbakkam, Chennai - TNPCB", "latitude": 13.0664, "longitude": 80.2112}, "site_5362": {"name": "Anthoni Pillai Nagar, Gummidipoondi - TNPCB", "latitude": 13.4127, "longitude": 80.1081}, "site_5363": {"name": "Perungudi, Chennai - TNPCB", "latitude": 12.9533, "longitude": 80.2357}, "site_5364": {"name": "Royapuram, Chennai - TNPCB", "latitude": 13.1036, "longitude": 80.2909}, "site_5365": {"name": "Kodungaiyur, Chennai - TNPCB", "latitude": 13.1278, "longitude": 80.2642}, "site_5367": {"name": "Meelavittan, Thoothukudi - TNPCB", "latitude": 8.816428, "longitude": 78.099039}, "site_5370": {"name": "Buddha Colony, Muzaffarpur - BSPCB", "latitude": 26.11442, "longitude": 85.39813}, "site_5375": {"name": "PWD Juction, Kohima - NPCB", "latitude": 25.6635413, "longitude": 94.0989878}, "site_5377": {"name": "Kunjaban, Agartala - Tripura SPCB", "latitude": 23.8628276, "longitude": 91.2887362}, "site_5391": {"name": "Stuart Hill, Madikeri - KSPCB", "latitude": 12.415911, "longitude": 75.73505}, "site_5392": {"name": "Bandra Kurla Complex, Mumbai - IITM", "latitude": 19.053536, "longitude": 72.84643}, "site_5393": {"name": "Chandni Chowk, Delhi - IITM", "latitude": 28.656756, "longitude": 77.227234}, "site_5394": {"name": "Mazgaon, Mumbai - IITM", "latitude": 18.96702, "longitude": 72.84214}, "site_5397": {"name": "Khindipada-Bhandup West, Mumbai - IITM", "latitude": 19.1653323, "longitude": 72.922099}, "site_5398": {"name": "Navy Nagar-Colaba, Mumbai - IITM", "latitude": 18.897756, "longitude": 72.81332}, "site_5399": {"name": "Chakala-Andheri East, Mumbai - IITM", "latitude": 19.11074, "longitude": 72.86084}, "site_5400": {"name": "Borivali East, Mumbai - IITM", "latitude": 19.23241, "longitude": 72.86895}, "site_5401": {"name": "Sector-19A Nerul, Navi Mumbai - IITM", "latitude": 19.044, "longitude": 73.0325}, "site_5402": {"name": "Malad West, Mumbai - IITM", "latitude": 19.19709, "longitude": 72.82204}, "site_5403": {"name": "Siddharth Nagar-Worli, Mumbai - IITM", "latitude": 19.000083, "longitude": 72.813993}, "site_5404": {"name": "Mhada Colony, Pune - IITM", "latitude": 18.57304, "longitude": 73.927715}, "site_5405": {"name": "Alandi, Pune - IITM", "latitude": 18.675076, "longitude": 73.892743}, "site_5406": {"name": "Bhosari, Pune - IITM", "latitude": 18.640051, "longitude": 73.848956}, "site_5407": {"name": "Hadapsar, Pune - IITM", "latitude": 18.501793, "longitude": 73.927532}, "site_5408": {"name": "Transport Nagar-Nigdi, Pune - IITM", "latitude": 18.664282, "longitude": 73.763966}, "site_5409": {"name": "Revenue Colony-Shivajinagar, Pune - IITM", "latitude": 18.530085, "longitude": 73.849598}, "site_5410": {"name": "MIT-Kothrud, Pune - IITM", "latitude": 18.517754, "longitude": 73.8214883}, "site_5414": {"name": "Haji Colony, Raichur - KSPCB", "latitude": 16.208139, "longitude": 77.348417}, "site_5415": {"name": "Diwator Nagar, Koppal - KSPCB", "latitude": 15.34763, "longitude": 76.181767}, "site_5416": {"name": "IITK, Kanpur - IITK", "latitude": 26.511739, "longitude": 80.235136}, "site_5417": {"name": "Pan Bazaar, Guwahati - PCBA", "latitude": 26.1875, "longitude": 91.744194}, "site_5419": {"name": "Panchal Nagar, Gadag - KSPCB", "latitude": 15.411456, "longitude": 75.638133}, "site_5420": {"name": "Ashwini Nagar, Haveri - KSPCB", "latitude": 14.7918, "longitude": 75.3896}, "site_5421": {"name": "Kadri, Mangalore - KSPCB", "latitude": 12.88925, "longitude": 74.853}, "site_5422": {"name": "Devaraj Urs Badavane, Davanagere - KSPCB", "latitude": 14.4758, "longitude": 75.9052}, "site_5423": {"name": "Jawahar Nagar, Puducherry - PPCC", "latitude": 11.9309, "longitude": 79.8027}, "site_5424": {"name": "Rajbagh, Srinagar - JKSPCB", "latitude": 34.066206, "longitude": 74.81982}, "site_5432": {"name": "Ramteerth Nagar, Belgaum - KSPCB", "latitude": 15.888653, "longitude": 74.541751}, "site_5433": {"name": "Brahmagiri, Udupi - KSPCB", "latitude": 13.34194444, "longitude": 74.74694444}, "site_5446": {"name": "Naharlagun, Naharlagun - APSPCB", "latitude": 27.103358, "longitude": 93.679645}, "site_5449": {"name": "Sardar Vallabhbhai Patel Stadium, Ahmedabad - IITM", "latitude": 23.04307, "longitude": 72.562968}, "site_5450": {"name": "Gyaspur, Ahmedabad - IITM", "latitude": 22.977134, "longitude": 72.553024}, "site_5451": {"name": "Rakhial, Ahmedabad - IITM", "latitude": 23.016834, "longitude": 72.625775}, "site_5452": {"name": "Raikhad, Ahmedabad - IITM", "latitude": 23.020509, "longitude": 72.579261}, "site_5453": {"name": "Chandkheda, Ahmedabad - IITM", "latitude": 23.107969, "longitude": 72.574648}, "site_5454": {"name": "SAC ISRO Bopal, Ahmedabad - IITM", "latitude": 23.041137, "longitude": 72.456691}, "site_5455": {"name": "SAC ISRO Satellite, Ahmedabad - IITM", "latitude": 23.023389, "longitude": 72.515201}, "site_5456": {"name": "SVPI Airport Hansol, Ahmedabad - IITM", "latitude": 23.076793, "longitude": 72.627874}, "site_5457": {"name": "IIPHG Lekawada, Gandhinagar - IITM", "latitude": 23.243639, "longitude": 72.68994}, "site_5458": {"name": "GIFT City, Gandhinagar - IITM", "latitude": 23.163798, "longitude": 72.677768}, "site_5459": {"name": "Motilal Nehru NIT, Prayagraj - UPPCB", "latitude": 25.494, "longitude": 81.863}, "site_5460": {"name": "B R Ambedkar University, Lucknow - UPPCB", "latitude": 26.766433, "longitude": 80.927299}, "site_5461": {"name": "Jhunsi, Prayagraj - UPPCB", "latitude": 25.425602, "longitude": 81.917152}, "site_5462": {"name": "Kukrail Picnic Spot-1, Lucknow - UPPCB", "latitude": 26.90723, "longitude": 80.98579}, "site_5463": {"name": "Shastripuram, Agra - UPPCB", "latitude": 27.19862, "longitude": 77.92066}, "site_5464": {"name": "Manoharpur, Agra - UPPCB", "latitude": 27.23711, "longitude": 78.01936}, "site_5465": {"name": "Sector-3B Avas Vikas Colony, Agra - UPPCB", "latitude": 27.19412, "longitude": 77.96237}, "site_5469": {"name": "Bhelupur, Varanasi - UPPCB", "latitude": 25.301778, "longitude": 82.996789}, "site_5472": {"name": "Madan Mohan Malaviya University of Technology, Gorakhpur - UPPCB", "latitude": 26.730136, "longitude": 83.433859}, "site_5474": {"name": "NSI Kalyanpur, Kanpur - UPPCB", "latitude": 26.509954, "longitude": 80.249612}, "site_5475": {"name": "Maldahiya, Varanasi - UPPCB", "latitude": 25.32393, "longitude": 82.99687}, "site_5476": {"name": "Kamalnath Nagar, Bettiah - BSPCB", "latitude": 26.80365, "longitude": 84.51954}, "site_5477": {"name": "Town Hall - Lal Bagh, Darbhanga - BSPCB", "latitude": 26.15146, "longitude": 85.89342}, "site_5478": {"name": "Gandak Colony, Motihari - BSPCB", "latitude": 26.63086, "longitude": 84.90051}, "site_5479": {"name": "MIT-Daudpur Kothi, Muzaffarpur - BSPCB", "latitude": 26.1403345, "longitude": 85.3650192}, "site_5480": {"name": "Nagla Bhau, Firozabad - UPPCB", "latitude": 27.168897, "longitude": 78.37696}, "site_5481": {"name": "D M Colony, Bihar Sharif - BSPCB", "latitude": 25.204762, "longitude": 85.51496}, "site_5482": {"name": "Rohta, Agra - UPPCB", "latitude": 27.106972, "longitude": 78.000111}, "site_5483": {"name": "Omex Eternity, Vrindavan - UPPCB", "latitude": 27.571409, "longitude": 77.655757}, "site_5484": {"name": "Nagar Nigam, Prayagraj - UPPCB", "latitude": 25.44919916, "longitude": 81.82735986}, "site_5485": {"name": "Dada Peer, Sasaram - BSPCB", "latitude": 24.952822, "longitude": 84.002396}, "site_5489": {"name": "Dangi Tola, Rajgir - BSPCB", "latitude": 25.0328, "longitude": 85.41948}, "site_5490": {"name": "Town Hall, Munger - BSPCB", "latitude": 25.376776, "longitude": 86.471523}, "site_5491": {"name": "Sector 22, Chandigarh - CPCC", "latitude": 30.735567, "longitude": 76.775714}, "site_5500": {"name": "FTI Kidwai Nagar, Kanpur - UPPCB", "latitude": 26.428282, "longitude": 80.327067}, "site_5501": {"name": "Shahjahan Garden, Agra - UPPCB", "latitude": 27.169338, "longitude": 78.03582}, "site_5536": {"name": "Civic Center, Bhilai - Bhilai Steel Plant", "latitude": 21.185571, "longitude": 81.343175}, "site_5537": {"name": "Employment Office, Moradabad - UPPCB", "latitude": 28.88528, "longitude": 78.7388}, "site_5538": {"name": "New DM Office, Arrah - BSPCB", "latitude": 25.5626095, "longitude": 84.663264}, "site_5539": {"name": "Kharahiya Basti, Araria - BSPCB", "latitude": 26.146529, "longitude": 87.454184}, "site_5540": {"name": "DRCC Anandpur, Begusarai - BSPCB", "latitude": 25.444266, "longitude": 86.140169}, "site_5541": {"name": "Mayaganj, Bhagalpur - BSPCB", "latitude": 25.265194, "longitude": 87.012947}, "site_5542": {"name": "Central Jail, Buxar - BSPCB", "latitude": 25.555605, "longitude": 83.950942}, "site_5543": {"name": "DM Office_Kachari Chowk, Bhagalpur - BSPCB", "latitude": 25.251013, "longitude": 86.989001}, "site_5544": {"name": "Gurdeo Nagar, Aurangabad - BSPCB", "latitude": 24.75746, "longitude": 84.366208}, "site_5545": {"name": "Darshan Nagar, Chhapra - BSPCB", "latitude": 25.7808257, "longitude": 84.7446768}, "site_5546": {"name": "Mirchaibari, Katihar - BSPCB", "latitude": 25.560083, "longitude": 87.553265}, "site_5547": {"name": "SDM Office_Khagra, Kishanganj - BSPCB", "latitude": 26.0881305, "longitude": 87.93840336}, "site_5548": {"name": "Kareemganj, Gaya - BSPCB", "latitude": 24.792403, "longitude": 84.992416}, "site_5549": {"name": "Mariam Nagar, Purnia - BSPCB", "latitude": 25.366336, "longitude": 87.117468}, "site_5550": {"name": "Forest Rest House, Manguraha - BSPCB", "latitude": 27.308328, "longitude": 84.531742}, "site_5551": {"name": "Police Line, Saharsa - BSPCB", "latitude": 25.892357, "longitude": 86.590325}, "site_5552": {"name": "DM Office_Kasipur, Samastipur - BSPCB", "latitude": 25.859655, "longitude": 85.77944}, "site_5553": {"name": "Chitragupta Nagar, Siwan - BSPCB", "latitude": 26.2271665, "longitude": 84.3570427}, "site_5554": {"name": "Buddhi Vihar, Moradabad - UPPCB", "latitude": 28.83526, "longitude": 78.7446}, "site_5555": {"name": "Jigar Colony, Moradabad - UPPCB", "latitude": 28.856664, "longitude": 78.772638}, "site_5556": {"name": "Eco Herbal Park, Moradabad - UPPCB", "latitude": 28.840739, "longitude": 78.697531}, "site_5582": {"name": "Sector-53, Chandigarh - CPCC", "latitude": 30.719859, "longitude": 76.738637}, "site_5583": {"name": "Shivaji Nagar, Jhansi - UPPCB", "latitude": 25.4547, "longitude": 78.6039}, "site_5584": {"name": "Vibhab Nagar, Firozabad - UPPCB", "latitude": 27.1594, "longitude": 78.3953}, "site_5585": {"name": "Sardar Patel Inter College, Baghpat - UPPCB", "latitude": 28.964949, "longitude": 77.278761}, "site_5586": {"name": "HIMUDA Complex Phase-1, Baddi - HPPCB", "latitude": 30.943887, "longitude": 76.801991}, "site_5587": {"name": "Bardowali, Agartala - Tripura SPCB", "latitude": 23.8175497, "longitude": 91.2726974}, "site_5591": {"name": "Manipur University, Imphal - Manipur PCB", "latitude": 24.7524239, "longitude": 93.9286218}, "site_5592": {"name": "DM College of Science, Imphal - Manipur PCB", "latitude": 24.8207389, "longitude": 93.9423085}, "site_5593": {"name": "JN Stadium, Shillong - Meghalaya PCB", "latitude": 25.5803419, "longitude": 91.8942571}, "site_5594": {"name": "Doon University, Dehradun - UKPCB", "latitude": 30.269444, "longitude": 78.044167}, "site_5595": {"name": "New Malakpet, Hyderabad - TSPCB", "latitude": 17.37206, "longitude": 78.50864}, "site_5596": {"name": "ECIL Kapra, Hyderabad - TSPCB", "latitude": 17.470431, "longitude": 78.566959}, "site_5597": {"name": "IITH Kandi, Hyderabad - TSPCB", "latitude": 17.585705, "longitude": 78.126199}, "site_5598": {"name": "Somajiguda, Hyderabad - TSPCB", "latitude": 17.417094, "longitude": 78.457437}, "site_5599": {"name": "Kompally Municipal Office, Hyderabad - TSPCB", "latitude": 17.544899, "longitude": 78.486949}, "site_5600": {"name": "Nacharam_TSIIC IALA, Hyderabad - TSPCB", "latitude": 17.429398, "longitude": 78.569354}, "site_5601": {"name": "Rajendra Nagar, Bareilly - UPPCB", "latitude": 28.38910936, "longitude": 79.42963708}, "site_5602": {"name": "Ramachandrapuram, Hyderabad - TSPCB", "latitude": 17.528544, "longitude": 78.286195}, "site_5603": {"name": "Kalindi Kunj, Khurja - UPPCB", "latitude": 28.2348927, "longitude": 77.8683002}, "site_5604": {"name": "Kokapet, Hyderabad - TSPCB", "latitude": 17.393559, "longitude": 78.339194}, "site_5605": {"name": "Crescent University, Chengalpattu - TNPCB", "latitude": 12.8777316, "longitude": 80.0834807}, "site_5606": {"name": "Keelapalur, Ariyalur - TNPCB", "latitude": 11.06825, "longitude": 79.07033}, "site_5607": {"name": "Kumaran College, Tirupur - TNPCB", "latitude": 11.0973603, "longitude": 77.3228673}, "site_5608": {"name": "Mendonsa Colony, Dindigul - TNPCB", "latitude": 10.358535, "longitude": 77.984321}, "site_5611": {"name": "Semmandalam, Cuddalore - TNPCB", "latitude": 11.7637683, "longitude": 79.7499835}, "site_5612": {"name": "SIPCOT Phase-1, Hosur - TNPCB", "latitude": 12.746998, "longitude": 77.813811}, "site_5615": {"name": "Vasanthapuram, Vellore - TNPCB", "latitude": 12.909494, "longitude": 79.131861}, "site_5618": {"name": "Gandhi Nagar_Ennore, Chennai - TNPCB", "latitude": 13.218341, "longitude": 80.32027}, "site_5619": {"name": "Kilambi, Kanchipuram - TNPCB", "latitude": 12.864618, "longitude": 79.659968}, "site_5620": {"name": "Kashiram Nagar, Moradabad - UPPCB", "latitude": 28.849399, "longitude": 78.742362}, "site_5621": {"name": "Kudikadu, Cuddalore - TNPCB", "latitude": 11.6829898, "longitude": 79.7532099}, "site_5623": {"name": "PSG College of Arts and Science, Coimbatore - TNPCB", "latitude": 11.0328, "longitude": 77.0349}, "site_5624": {"name": "Bombay Castel, Ooty - TNPCB", "latitude": 11.4068288, "longitude": 76.7138973}, "site_5626": {"name": "Bharathidasan University, Palkalaiperur - TNPCB", "latitude": 10.681158, "longitude": 78.741746}, "site_5632": {"name": "Gulzarpet, Anantapur - APPCB", "latitude": 14.675886, "longitude": 77.593027}, "site_5638": {"name": "Kalabhavan, Dharwad - KSPCB", "latitude": 15.459706, "longitude": 75.008381}, "site_5650": {"name": "Paryavaran Parisar, Bhopal - MPPCB", "latitude": 23.210494, "longitude": 77.425409}, "site_5651": {"name": "IITG, Guwahati - PCBA", "latitude": 26.2028636, "longitude": 91.70046436}, "site_5652": {"name": "AIIMS, Raipur - CECB", "latitude": 21.258815, "longitude": 81.578979}, "site_5653": {"name": "Siltara Phase-II, Raipur - CECB", "latitude": 21.371751, "longitude": 81.664929}, "site_5654": {"name": "Krishak Nagar, Raipur - CECB", "latitude": 21.237755, "longitude": 81.705301}, "site_5655": {"name": "Bhatagaon New ISBT, Raipur - CECB", "latitude": 21.219665, "longitude": 81.630094}, "site_5656": {"name": "Rampur, Korba - CECB", "latitude": 22.368195, "longitude": 82.746431}, "site_5657": {"name": "Urja Nagar, Korba - CECB", "latitude": 22.348441, "longitude": 82.549611}, "site_5658": {"name": "Girls College, Sivasagar - PCBA", "latitude": 26.987634, "longitude": 94.636574}, "site_5659": {"name": "Hathkhoj, Bhilai - CECB", "latitude": 21.224231, "longitude": 81.40835}, "site_5660": {"name": "32Bungalows, Bhilai - CECB", "latitude": 21.194815, "longitude": 81.31477}, "site_5661": {"name": "Maharaj Bada, Gwalior - MPPCB", "latitude": 26.200388, "longitude": 78.147714}, "site_5662": {"name": "Civil Lines, Sagar - MPPCB", "latitude": 23.838586, "longitude": 78.759431}, "site_5664": {"name": "Science Center, Surat - SMC", "latitude": 21.170046, "longitude": 72.795405}, "site_5049": {"name": "Sector-12, Karnal - HSPCB", "latitude": 29.6953, "longitude": 77.0027}, "site_5665": {"name": "Gangineni Cheruvu, Chittoor - APPCB", "latitude": 13.20488, "longitude": 79.097889}, "site_5666": {"name": "Vaikuntapuram, Tirupati - APPCB", "latitude": 13.615387, "longitude": 79.40923}, "site_5667": {"name": "Deen Dayal Nagar, Gwalior - MPPCB", "latitude": 26.259242, "longitude": 78.216432}, "site_5668": {"name": "Bata Chowk, Nalbari - PCBA", "latitude": 26.446912, "longitude": 91.439057}, "site_5669": {"name": "Central Academy for SFS, Byrnihat - PCBA", "latitude": 26.071318, "longitude": 91.87488}, "site_5670": {"name": "Meher Colony, Baripada - OSPCB", "latitude": 21.941841, "longitude": 86.728318}, "site_5671": {"name": "Jagamohanpur, Keonjhar - OSPCB", "latitude": 21.6439, "longitude": 85.599355}, "site_5672": {"name": "Divisional Forest Office, Rairangpur - OSPCB", "latitude": 22.265816, "longitude": 86.174829}, "site_5673": {"name": "Tata Township, Bileipada - OSPCB", "latitude": 22.06156703, "longitude": 85.47409613}, "site_5674": {"name": "Dabuna, Nayagarh - OSPCB", "latitude": 21.847279, "longitude": 85.416905}, "site_5675": {"name": "Raghunathpali, Rourkela - OSPCB", "latitude": 22.220833, "longitude": 84.809444}, "site_5676": {"name": "OMC Colony, Suakati - OSPCB", "latitude": 21.606865, "longitude": 85.510538}, "site_5677": {"name": "Barsua Iron Ore Mines, Tensa - OSPCB", "latitude": 21.869985, "longitude": 85.167016}, "site_5678": {"name": "RVCE-Mailasandra, Bengaluru - KSPCB", "latitude": 12.921418, "longitude": 77.502466}, "site_5679": {"name": "Mahatma Basaveswar Colony, Kalaburgi - KSPCB", "latitude": 17.336318, "longitude": 76.847397}, "site_5680": {"name": "Lingaraj Nagar, Hubballi - KSPCB", "latitude": 15.3714823, "longitude": 75.1160168}, "site_5681": {"name": "Kasturi Nagar, Bengaluru - KSPCB", "latitude": 13.003872, "longitude": 77.664217}, "site_5682": {"name": "Thimmalapura, Tumakuru - KSPCB", "latitude": 13.377516, "longitude": 77.099072}, "site_5683": {"name": "LGBI Airport, Guwahati - PCBA", "latitude": 26.10887, "longitude": 91.589544}, "site_5684": {"name": "Tarapur, Silchar - PCBA", "latitude": 24.82827, "longitude": 92.79525}, "site_5685": {"name": "Kanuru, Vijayawada - APPCB", "latitude": 16.486692, "longitude": 80.699436}, "site_5686": {"name": "Shivapura_Peenya, Bengaluru - KSPCB", "latitude": 13.0246342, "longitude": 77.5080115}, "site_5687": {"name": "Fertilizer Township, Rourkela - OSPCB", "latitude": 22.18972222, "longitude": 84.86277778}, "site_5688": {"name": "Sector-2, Rourkela - OSPCB", "latitude": 22.245, "longitude": 84.88111111}, "site_5689": {"name": "Nawapara SECL Colony, Chhal - CECB", "latitude": 22.118125, "longitude": 83.140608}, "site_5690": {"name": "OP Jindal School, Kunjemura - CECB", "latitude": 22.12665, "longitude": 83.483212}, "site_5691": {"name": "Govt. Higher Secondary School, Milupara - CECB", "latitude": 22.1910172, "longitude": 83.5197009}, "site_5692": {"name": "OP Jindal Industrial Park, Tumidih - CECB", "latitude": 22.06631475, "longitude": 83.33820077}, "site_5693": {"name": "Yerramukkapalli, Kadapa - APPCB", "latitude": 14.465052, "longitude": 78.824187}, "site_293": {"name": "Alandur Bus Depot, Chennai - CPCB", "latitude": 12.9099161, "longitude": 80.1076538}, "site_5694": {"name": "Samrat Ashok Udhyan, Jodhpur - RSPCB", "latitude": 26.253384, "longitude": 72.976571}, "site_5695": {"name": "Krishna Nagar, Bharatpur - RSPCB", "latitude": 27.215415, "longitude": 77.50873}, "site_5696": {"name": "MM Ground, Bikaner - RSPCB", "latitude": 28.018792, "longitude": 73.292658}, "site_5699": {"name": "Subash Chowk, Churu - RSPCB", "latitude": 28.296139, "longitude": 74.961696}, "site_5700": {"name": "Raja Ganj, Dholpur - RSPCB", "latitude": 26.699557, "longitude": 77.898881}, "site_5701": {"name": "Nayapura, Kota - RSPCB", "latitude": 25.196024, "longitude": 75.855668}, "site_5702": {"name": "Shastri Nagar, Tonk - RSPCB", "latitude": 26.159933, "longitude": 75.780517}, "site_5703": {"name": "Shivaji Nagar, Rishikesh - UKPCB", "latitude": 30.075911, "longitude": 78.2859547}, "site_5704": {"name": "Govt. Girls Inter College, Kashipur - UKPCB", "latitude": 29.2124114, "longitude": 78.9611753}, "site_5705": {"name": "Vedhaynath Colony, Sirohi - RSPCB", "latitude": 24.885261, "longitude": 72.857549}, "site_5622": {"name": "Sona College of Technology, Salem - TNPCB", "latitude": 11.679111, "longitude": 78.125052}, "site_5706": {"name": "Christianpatty, Nagaon - PCBA", "latitude": 26.349082, "longitude": 92.68449}, "site_5707": {"name": "Dhanmandi, Kota - RSPCB", "latitude": 25.16409, "longitude": 75.858137}, "site_5708": {"name": "Idgah Hills, Bhopal - MPPCB", "latitude": 23.264759, "longitude": 77.381568}, "site_5709": {"name": "Vijay Nagar Scheme-78, Indore - Glenmark", "latitude": 22.76726, "longitude": 75.8871}, "site_5710": {"name": "Sardar Patel Nagar, Dhanbad - JSPCB", "latitude": 23.80569, "longitude": 86.44268}, "site_5711": {"name": "Rati Talai, Banswara - RSPCB", "latitude": 23.55519, "longitude": 74.44001}, "site_5712": {"name": "Shastri Nagar, Chittorgarh - RSPCB", "latitude": 24.892047, "longitude": 74.623527}, "site_5713": {"name": "Khatikan Mohalla, Dausa - RSPCB", "latitude": 26.895552, "longitude": 76.334753}, "site_5714": {"name": "Railway Colony, Barmer - RSPCB", "latitude": 25.747299, "longitude": 71.393989}, "site_5715": {"name": "Housing Board, Hanumangarh - RSPCB", "latitude": 29.61075, "longitude": 74.283608}, "site_5716": {"name": "Sahu Nagar, Sawai Madhopur - RSPCB", "latitude": 26.031443, "longitude": 76.359327}, "site_5717": {"name": "Indra Nagar, Jhunjhunu - RSPCB", "latitude": 28.108988, "longitude": 75.386577}, "site_5718": {"name": "Dhoinda, Rajsamand - RSPCB", "latitude": 25.03636, "longitude": 73.883502}, "site_5719": {"name": "Old City, Sri Ganganagar - RSPCB", "latitude": 29.931624, "longitude": 73.864511}, "site_5720": {"name": "Jhalamand, Jodhpur - RSPCB", "latitude": 26.215415, "longitude": 73.070156}, "site_5721": {"name": "Pragati Nagar, Pratapgarh - RSPCB", "latitude": 24.041198, "longitude": 74.780702}, "site_5722": {"name": "Radhakishan Pura, Sikar - RSPCB", "latitude": 27.608912, "longitude": 75.153302}, "site_5723": {"name": "Satyawati Vihar, Karauli - RSPCB", "latitude": 26.506177, "longitude": 77.025989}, "site_5724": {"name": "Rajlaxmi Nagar, Jhalawar - RSPCB", "latitude": 24.588397, "longitude": 76.172782}, "site_5725": {"name": "Mansarovar Sector-12, Jaipur - RSPCB", "latitude": 26.843698, "longitude": 75.766894}, "site_5726": {"name": "Digari Kalan, Jodhpur - RSPCB", "latitude": 26.29581, "longitude": 73.082283}, "site_5727": {"name": "Sector-2 Murlipura, Jaipur - RSPCB", "latitude": 26.960669, "longitude": 75.771817}, "site_5729": {"name": "Jigani, Bengaluru - KSPCB", "latitude": 12.7816279, "longitude": 77.6299145}, "site_5768": {"name": "Shivaji University, Kolhapur - MPCB", "latitude": 16.6870449, "longitude": 74.2505872}, "site_5769": {"name": "Sinchan Bhavan, Kolhapur - MPCB", "latitude": 16.7143745, "longitude": 74.2426398}, "site_5771": {"name": "New Colony, Bundi - RSPCB", "latitude": 25.435774, "longitude": 75.644272}, "site_5772": {"name": "Sadar Bazar, Jaisalmer - RSPCB", "latitude": 26.912329, "longitude": 70.909168}, "site_5773": {"name": "Mandor, Jodhpur - RSPCB", "latitude": 26.358805, "longitude": 73.047444}}